{
  "type": "FeatureCollection",
  "features": [
    {"type":"Feature","properties":{"id":"s001","name":"大阪府立西成高等学校","type":"公立","hensachi":36,"required_vocab":50},"geometry":{"type":"Point","coordinates":[135.4969,34.6297]}},
    {"type":"Feature","properties":{"id":"s002","name":"大阪府立平野高等学校","type":"公立","hensachi":37,"required_vocab":60},"geometry":{"type":"Point","coordinates":[135.5589,34.6117]}},
    {"type":"Feature","properties":{"id":"s003","name":"大阪府立淀川清流高等学校","type":"公立","hensachi":37,"required_vocab":70},"geometry":{"type":"Point","coordinates":[135.4681,34.7256]}},
    {"type":"Feature","properties":{"id":"s004","name":"大阪府立勝山高等学校","type":"公立","hensachi":38,"required_vocab":80},"geometry":{"type":"Point","coordinates":[135.5372,34.6364]}},
    {"type":"Feature","properties":{"id":"s005","name":"大阪府立大正白稜高等学校","type":"公立","hensachi":38,"required_vocab":90},"geometry":{"type":"Point","coordinates":[135.4644,34.6453]}},
    {"type":"Feature","properties":{"id":"s006","name":"大阪府立布施北高等学校","type":"公立","hensachi":38,"required_vocab":100},"geometry":{"type":"Point","coordinates":[135.5756,34.6692]}},
    {"type":"Feature","properties":{"id":"s007","name":"大阪府立成城高等学校","type":"公立","hensachi":38,"required_vocab":110},"geometry":{"type":"Point","coordinates":[135.5311,34.6536]}},
    {"type":"Feature","properties":{"id":"s008","name":"大阪府立長吉高等学校","type":"公立","hensachi":39,"required_vocab":120},"geometry":{"type":"Point","coordinates":[135.5669,34.5994]}},
    {"type":"Feature","properties":{"id":"s009","name":"大阪府立茨田高等学校","type":"公立","hensachi":39,"required_vocab":130},"geometry":{"type":"Point","coordinates":[135.5872,34.7247]}},
    {"type":"Feature","properties":{"id":"s010","name":"大阪府立岬高等学校","type":"公立","hensachi":39,"required_vocab":140},"geometry":{"type":"Point","coordinates":[135.1419,34.3192]}},
    {"type":"Feature","properties":{"id":"s011","name":"大阪府立野崎高等学校","type":"公立","hensachi":39,"required_vocab":150},"geometry":{"type":"Point","coordinates":[135.6381,34.7178]}},
    {"type":"Feature","properties":{"id":"s012","name":"大阪府立福井高等学校","type":"公立","hensachi":39,"required_vocab":160},"geometry":{"type":"Point","coordinates":[135.4681,34.8036]}},
    {"type":"Feature","properties":{"id":"s013","name":"大阪府立堺上高等学校","type":"公立","hensachi":40,"required_vocab":170},"geometry":{"type":"Point","coordinates":[135.5003,34.5106]}},
    {"type":"Feature","properties":{"id":"s014","name":"大阪府立貝塚高等学校","type":"公立","hensachi":40,"required_vocab":180},"geometry":{"type":"Point","coordinates":[135.3597,34.4419]}},
    {"type":"Feature","properties":{"id":"s015","name":"大阪府立泉鳥取高等学校","type":"公立","hensachi":40,"required_vocab":190},"geometry":{"type":"Point","coordinates":[135.2647,34.3639]}},
    {"type":"Feature","properties":{"id":"s016","name":"大阪府立門真西高等学校","type":"公立","hensachi":40,"required_vocab":200},"geometry":{"type":"Point","coordinates":[135.5839,34.7319]}},
    {"type":"Feature","properties":{"id":"s017","name":"大阪府立美原高等学校","type":"公立","hensachi":40,"required_vocab":210},"geometry":{"type":"Point","coordinates":[135.5347,34.5278]}},
    {"type":"Feature","properties":{"id":"s018","name":"大阪府立和泉総合高等学校","type":"公立","hensachi":40,"required_vocab":220},"geometry":{"type":"Point","coordinates":[135.4164,34.4803]}},
    {"type":"Feature","properties":{"id":"s019","name":"大阪府立八尾北高等学校","type":"公立","hensachi":41,"required_vocab":230},"geometry":{"type":"Point","coordinates":[135.5975,34.6378]}},
    {"type":"Feature","properties":{"id":"s020","name":"大阪府立藤井寺高等学校","type":"公立","hensachi":41,"required_vocab":240},"geometry":{"type":"Point","coordinates":[135.5964,34.5733]}},
    {"type":"Feature","properties":{"id":"s021","name":"大阪府立柴島高等学校","type":"公立","hensachi":41,"required_vocab":250},"geometry":{"type":"Point","coordinates":[135.5122,34.7261]}},
    {"type":"Feature","properties":{"id":"s022","name":"大阪府立枚岡樟風高等学校","type":"公立","hensachi":41,"required_vocab":260},"geometry":{"type":"Point","coordinates":[135.6317,34.6694]}},
    {"type":"Feature","properties":{"id":"s023","name":"大阪府立懐風館高等学校","type":"公立","hensachi":41,"required_vocab":270},"geometry":{"type":"Point","coordinates":[135.6175,34.5567]}},
    {"type":"Feature","properties":{"id":"s024","name":"大阪府立箕面東高等学校","type":"公立","hensachi":41,"required_vocab":280},"geometry":{"type":"Point","coordinates":[135.4847,34.8261]}},
    {"type":"Feature","properties":{"id":"s025","name":"大阪府立金剛高等学校","type":"公立","hensachi":42,"required_vocab":290},"geometry":{"type":"Point","coordinates":[135.5544,34.5044]}},
    {"type":"Feature","properties":{"id":"s026","name":"大阪府立摂津高等学校","type":"公立","hensachi":42,"required_vocab":300},"geometry":{"type":"Point","coordinates":[135.5583,34.7772]}},
    {"type":"Feature","properties":{"id":"s027","name":"大阪府立北かわち皐が丘高等学校","type":"公立","hensachi":42,"required_vocab":310},"geometry":{"type":"Point","coordinates":[135.6303,34.7356]}},
    {"type":"Feature","properties":{"id":"s028","name":"大阪府立東住吉総合高等学校","type":"公立","hensachi":42,"required_vocab":320},"geometry":{"type":"Point","coordinates":[135.5456,34.6108]}},
    {"type":"Feature","properties":{"id":"s029","name":"大阪府立能勢高等学校","type":"公立","hensachi":42,"required_vocab":330},"geometry":{"type":"Point","coordinates":[135.4156,34.9386]}},
    {"type":"Feature","properties":{"id":"s030","name":"大阪府立島本高等学校","type":"公立","hensachi":42,"required_vocab":340},"geometry":{"type":"Point","coordinates":[135.6647,34.8775]}},
    {"type":"Feature","properties":{"id":"s031","name":"大阪府立日根野高等学校","type":"公立","hensachi":43,"required_vocab":350},"geometry":{"type":"Point","coordinates":[135.3158,34.3992]}},
    {"type":"Feature","properties":{"id":"s032","name":"大阪府立河南高等学校","type":"公立","hensachi":43,"required_vocab":360},"geometry":{"type":"Point","coordinates":[135.6222,34.5019]}},
    {"type":"Feature","properties":{"id":"s033","name":"大阪府立泉南高等学校","type":"公立","hensachi":43,"required_vocab":370},"geometry":{"type":"Point","coordinates":[135.2758,34.3656]}},
    {"type":"Feature","properties":{"id":"s034","name":"大阪府立松原高等学校","type":"公立","hensachi":43,"required_vocab":380},"geometry":{"type":"Point","coordinates":[135.5503,34.5817]}},
    {"type":"Feature","properties":{"id":"s035","name":"大阪府立緑風冠高等学校","type":"公立","hensachi":43,"required_vocab":390},"geometry":{"type":"Point","coordinates":[135.6458,34.7308]}},
    {"type":"Feature","properties":{"id":"s036","name":"大阪府立交野高等学校","type":"公立","hensachi":44,"required_vocab":400},"geometry":{"type":"Point","coordinates":[135.6781,34.7856]}},
    {"type":"Feature","properties":{"id":"s037","name":"大阪府立りんくう翔南高等学校","type":"公立","hensachi":44,"required_vocab":410},"geometry":{"type":"Point","coordinates":[135.2978,34.3969]}},
    {"type":"Feature","properties":{"id":"s038","name":"大阪府立阿武野高等学校","type":"公立","hensachi":44,"required_vocab":420},"geometry":{"type":"Point","coordinates":[135.5956,34.8531]}},
    {"type":"Feature","properties":{"id":"s039","name":"大阪府立東淀川高等学校","type":"公立","hensachi":44,"required_vocab":430},"geometry":{"type":"Point","coordinates":[135.5156,34.7522]}},
    {"type":"Feature","properties":{"id":"s040","name":"大阪府立港高等学校","type":"公立","hensachi":44,"required_vocab":440},"geometry":{"type":"Point","coordinates":[135.4578,34.6522]}},
    {"type":"Feature","properties":{"id":"s041","name":"大阪府立福泉高等学校","type":"公立","hensachi":44,"required_vocab":450},"geometry":{"type":"Point","coordinates":[135.4744,34.5247]}},
    {"type":"Feature","properties":{"id":"s042","name":"大阪府立堺西高等学校","type":"公立","hensachi":45,"required_vocab":460},"geometry":{"type":"Point","coordinates":[135.4519,34.5217]}},
    {"type":"Feature","properties":{"id":"s043","name":"大阪府立枚方津田高等学校","type":"公立","hensachi":45,"required_vocab":470},"geometry":{"type":"Point","coordinates":[135.7003,34.8086]}},
    {"type":"Feature","properties":{"id":"s044","name":"大阪府立吹田東高等学校","type":"公立","hensachi":45,"required_vocab":480},"geometry":{"type":"Point","coordinates":[135.5303,34.7789]}},
    {"type":"Feature","properties":{"id":"s045","name":"大阪府立豊島高等学校","type":"公立","hensachi":45,"required_vocab":490},"geometry":{"type":"Point","coordinates":[135.4458,34.7772]}},
    {"type":"Feature","properties":{"id":"s046","name":"大阪府立今宮高等学校","type":"公立","hensachi":45,"required_vocab":500},"geometry":{"type":"Point","coordinates":[135.5019,34.6478]}},
    {"type":"Feature","properties":{"id":"s047","name":"大阪府立阪南高等学校","type":"公立","hensachi":46,"required_vocab":510},"geometry":{"type":"Point","coordinates":[135.5175,34.6156]}},
    {"type":"Feature","properties":{"id":"s048","name":"大阪府立渋谷高等学校","type":"公立","hensachi":46,"required_vocab":520},"geometry":{"type":"Point","coordinates":[135.4642,34.5319]}},
    {"type":"Feature","properties":{"id":"s049","name":"大阪府立みどり清朋高等学校","type":"公立","hensachi":46,"required_vocab":530},"geometry":{"type":"Point","coordinates":[135.6106,34.6528]}},
    {"type":"Feature","properties":{"id":"s050","name":"大阪府立伯太高等学校","type":"公立","hensachi":46,"required_vocab":540},"geometry":{"type":"Point","coordinates":[135.4169,34.4933]}},
    {"type":"Feature","properties":{"id":"s051","name":"大阪府立門真なみはや高等学校","type":"公立","hensachi":46,"required_vocab":550},"geometry":{"type":"Point","coordinates":[135.5908,34.7319]}},
    {"type":"Feature","properties":{"id":"s052","name":"大阪府立汎愛高等学校","type":"公立","hensachi":46,"required_vocab":560},"geometry":{"type":"Point","coordinates":[135.5575,34.7117]}},
    {"type":"Feature","properties":{"id":"s053","name":"大阪府立東百舌鳥高等学校","type":"公立","hensachi":47,"required_vocab":570},"geometry":{"type":"Point","coordinates":[135.5139,34.5433]}},
    {"type":"Feature","properties":{"id":"s054","name":"大阪府立大塚高等学校","type":"公立","hensachi":47,"required_vocab":580},"geometry":{"type":"Point","coordinates":[135.5522,34.5556]}},
    {"type":"Feature","properties":{"id":"s055","name":"大阪府立守口東高等学校","type":"公立","hensachi":47,"required_vocab":590},"geometry":{"type":"Point","coordinates":[135.5756,34.7417]}},
    {"type":"Feature","properties":{"id":"s056","name":"大阪府立北摂つばさ高等学校","type":"公立","hensachi":47,"required_vocab":600},"geometry":{"type":"Point","coordinates":[135.5436,34.7842]}},
    {"type":"Feature","properties":{"id":"s057","name":"大阪府立泉大津高等学校","type":"公立","hensachi":47,"required_vocab":610},"geometry":{"type":"Point","coordinates":[135.4044,34.5017]}},
    {"type":"Feature","properties":{"id":"s058","name":"大阪府立貝塚南高等学校","type":"公立","hensachi":48,"required_vocab":620},"geometry":{"type":"Point","coordinates":[135.3547,34.4319]}},
    {"type":"Feature","properties":{"id":"s059","name":"大阪府立芦間高等学校","type":"公立","hensachi":48,"required_vocab":630},"geometry":{"type":"Point","coordinates":[135.5642,34.7317]}},
    {"type":"Feature","properties":{"id":"s060","name":"大阪府立信太高等学校","type":"公立","hensachi":48,"required_vocab":640},"geometry":{"type":"Point","coordinates":[135.4269,34.4858]}},
    {"type":"Feature","properties":{"id":"s061","name":"大阪府立枚方なぎさ高等学校","type":"公立","hensachi":48,"required_vocab":650},"geometry":{"type":"Point","coordinates":[135.6442,34.7922]}},
    {"type":"Feature","properties":{"id":"s062","name":"大阪府立山田高等学校","type":"公立","hensachi":48,"required_vocab":660},"geometry":{"type":"Point","coordinates":[135.5022,34.8047]}},
    {"type":"Feature","properties":{"id":"s063","name":"大阪府立長野高等学校","type":"公立","hensachi":49,"required_vocab":670},"geometry":{"type":"Point","coordinates":[135.5625,34.4631]}},
    {"type":"Feature","properties":{"id":"s064","name":"大阪府立池田北高等学校","type":"公立","hensachi":49,"required_vocab":680},"geometry":{"type":"Point","coordinates":[135.4256,34.8278]}},
    {"type":"Feature","properties":{"id":"s065","name":"大阪府立高石高等学校","type":"公立","hensachi":49,"required_vocab":690},"geometry":{"type":"Point","coordinates":[135.4372,34.5142]}},
    {"type":"Feature","properties":{"id":"s066","name":"大阪府立茨木西高等学校","type":"公立","hensachi":49,"required_vocab":700},"geometry":{"type":"Point","coordinates":[135.5336,34.8119]}},
    {"type":"Feature","properties":{"id":"s067","name":"大阪府立成美高等学校","type":"公立","hensachi":49,"required_vocab":710},"geometry":{"type":"Point","coordinates":[135.5433,34.6617]}},
    {"type":"Feature","properties":{"id":"s068","name":"大阪府立西浦高等学校","type":"公立","hensachi":50,"required_vocab":720},"geometry":{"type":"Point","coordinates":[135.6131,34.5917]}},
    {"type":"Feature","properties":{"id":"s069","name":"大阪府立旭高等学校","type":"公立","hensachi":50,"required_vocab":730},"geometry":{"type":"Point","coordinates":[135.5450,34.7119]}},
    {"type":"Feature","properties":{"id":"s070","name":"大阪府立大冠高等学校","type":"公立","hensachi":50,"required_vocab":740},"geometry":{"type":"Point","coordinates":[135.6175,34.8439]}},
    {"type":"Feature","properties":{"id":"s071","name":"大阪府立かわち野高等学校","type":"公立","hensachi":50,"required_vocab":750},"geometry":{"type":"Point","coordinates":[135.6164,34.6917]}},
    {"type":"Feature","properties":{"id":"s072","name":"大阪府立泉尾高等学校","type":"公立","hensachi":50,"required_vocab":760},"geometry":{"type":"Point","coordinates":[135.4606,34.6536]}},
    {"type":"Feature","properties":{"id":"s073","name":"大阪府立鳥飼高等学校","type":"公立","hensachi":50,"required_vocab":770},"geometry":{"type":"Point","coordinates":[135.5969,34.7833]}},
    {"type":"Feature","properties":{"id":"s074","name":"大阪府立咲くやこの花高等学校","type":"公立","hensachi":51,"required_vocab":780},"geometry":{"type":"Point","coordinates":[135.4419,34.6744]}},
    {"type":"Feature","properties":{"id":"s075","name":"大阪府立桜塚高等学校","type":"公立","hensachi":51,"required_vocab":790},"geometry":{"type":"Point","coordinates":[135.4678,34.7681]}},
    {"type":"Feature","properties":{"id":"s076","name":"大阪府立狭山高等学校","type":"公立","hensachi":51,"required_vocab":800},"geometry":{"type":"Point","coordinates":[135.5497,34.5047]}},
    {"type":"Feature","properties":{"id":"s077","name":"大阪府立山本高等学校","type":"公立","hensachi":51,"required_vocab":810},"geometry":{"type":"Point","coordinates":[135.6047,34.6161]}},
    {"type":"Feature","properties":{"id":"s078","name":"大阪府立泉北高等学校","type":"公立","hensachi":51,"required_vocab":820},"geometry":{"type":"Point","coordinates":[135.4744,34.4917]}},
    {"type":"Feature","properties":{"id":"s079","name":"大阪府立城山高等学校","type":"公立","hensachi":51,"required_vocab":830},"geometry":{"type":"Point","coordinates":[135.6419,34.6556]}},
    {"type":"Feature","properties":{"id":"s080","name":"大阪府立枚方高等学校","type":"公立","hensachi":52,"required_vocab":840},"geometry":{"type":"Point","coordinates":[135.6489,34.8047]}},
    {"type":"Feature","properties":{"id":"s081","name":"大阪府立北千里高等学校","type":"公立","hensachi":52,"required_vocab":850},"geometry":{"type":"Point","coordinates":[135.4903,34.8206]}},
    {"type":"Feature","properties":{"id":"s082","name":"大阪府立柏原東高等学校","type":"公立","hensachi":52,"required_vocab":860},"geometry":{"type":"Point","coordinates":[135.6331,34.5836]}},
    {"type":"Feature","properties":{"id":"s083","name":"大阪府立槻の木高等学校","type":"公立","hensachi":52,"required_vocab":870},"geometry":{"type":"Point","coordinates":[135.6217,34.8492]}},
    {"type":"Feature","properties":{"id":"s084","name":"大阪府立刀根山高等学校","type":"公立","hensachi":53,"required_vocab":880},"geometry":{"type":"Point","coordinates":[135.4589,34.7906]}},
    {"type":"Feature","properties":{"id":"s085","name":"大阪府立佐野高等学校","type":"公立","hensachi":53,"required_vocab":890},"geometry":{"type":"Point","coordinates":[135.3381,34.4028]}},
    {"type":"Feature","properties":{"id":"s086","name":"大阪府立河内長野高等学校","type":"公立","hensachi":53,"required_vocab":900},"geometry":{"type":"Point","coordinates":[135.5711,34.4556]}},
    {"type":"Feature","properties":{"id":"s087","name":"大阪府立阿倍野高等学校","type":"公立","hensachi":53,"required_vocab":910},"geometry":{"type":"Point","coordinates":[135.5247,34.6267]}},
    {"type":"Feature","properties":{"id":"s088","name":"大阪府立東高等学校","type":"公立","hensachi":53,"required_vocab":920},"geometry":{"type":"Point","coordinates":[135.5336,34.6847]}},
    {"type":"Feature","properties":{"id":"s089","name":"大阪府立八尾翠翔高等学校","type":"公立","hensachi":53,"required_vocab":930},"geometry":{"type":"Point","coordinates":[135.5875,34.6247]}},
    {"type":"Feature","properties":{"id":"s090","name":"大阪府立久米田高等学校","type":"公立","hensachi":54,"required_vocab":940},"geometry":{"type":"Point","coordinates":[135.3894,34.4572]}},
    {"type":"Feature","properties":{"id":"s091","name":"大阪府立花園高等学校","type":"公立","hensachi":54,"required_vocab":950},"geometry":{"type":"Point","coordinates":[135.6064,34.6672]}},
    {"type":"Feature","properties":{"id":"s092","name":"大阪府立日新高等学校","type":"公立","hensachi":54,"required_vocab":960},"geometry":{"type":"Point","coordinates":[135.5008,34.6569]}},
    {"type":"Feature","properties":{"id":"s093","name":"大阪府立吹田高等学校","type":"公立","hensachi":54,"required_vocab":970},"geometry":{"type":"Point","coordinates":[135.5181,34.7653]}},
    {"type":"Feature","properties":{"id":"s094","name":"大阪府立香里丘高等学校","type":"公立","hensachi":55,"required_vocab":980},"geometry":{"type":"Point","coordinates":[135.6669,34.7692]}},
    {"type":"Feature","properties":{"id":"s095","name":"大阪府立南高等学校","type":"公立","hensachi":55,"required_vocab":990},"geometry":{"type":"Point","coordinates":[135.5047,34.6578]}},
    {"type":"Feature","properties":{"id":"s096","name":"大阪府立清水谷高等学校","type":"公立","hensachi":55,"required_vocab":1000},"geometry":{"type":"Point","coordinates":[135.5247,34.6736]}},
    {"type":"Feature","properties":{"id":"s097","name":"大阪府立市岡高等学校","type":"公立","hensachi":55,"required_vocab":1010},"geometry":{"type":"Point","coordinates":[135.4733,34.6694]}},
    {"type":"Feature","properties":{"id":"s098","name":"大阪府立夕陽丘高等学校","type":"公立","hensachi":56,"required_vocab":1020},"geometry":{"type":"Point","coordinates":[135.5156,34.6531]}},
    {"type":"Feature","properties":{"id":"s099","name":"大阪府立登美丘高等学校","type":"公立","hensachi":56,"required_vocab":1030},"geometry":{"type":"Point","coordinates":[135.5186,34.5361]}},
    {"type":"Feature","properties":{"id":"s100","name":"大阪府立高槻北高等学校","type":"公立","hensachi":56,"required_vocab":1040},"geometry":{"type":"Point","coordinates":[135.6047,34.8628]}},
    {"type":"Feature","properties":{"id":"s101","name":"大阪府立布施高等学校","type":"公立","hensachi":57,"required_vocab":1050},"geometry":{"type":"Point","coordinates":[135.5697,34.6617]}},
    {"type":"Feature","properties":{"id":"s102","name":"大阪府立箕面高等学校","type":"公立","hensachi":57,"required_vocab":1060},"geometry":{"type":"Point","coordinates":[135.4689,34.8267]}},
    {"type":"Feature","properties":{"id":"s103","name":"大阪府立東住吉高等学校","type":"公立","hensachi":58,"required_vocab":1070},"geometry":{"type":"Point","coordinates":[135.5428,34.6089]}},
    {"type":"Feature","properties":{"id":"s104","name":"大阪府立池田高等学校","type":"公立","hensachi":58,"required_vocab":1080},"geometry":{"type":"Point","coordinates":[135.4336,34.8181]}},
    {"type":"Feature","properties":{"id":"s105","name":"大阪府立寝屋川高等学校","type":"公立","hensachi":58,"required_vocab":1090},"geometry":{"type":"Point","coordinates":[135.6292,34.7656]}},
    {"type":"Feature","properties":{"id":"s106","name":"大阪府立八尾高等学校","type":"公立","hensachi":58,"required_vocab":1100},"geometry":{"type":"Point","coordinates":[135.5992,34.6278]}},
    {"type":"Feature","properties":{"id":"s107","name":"大阪府立富田林高等学校","type":"公立","hensachi":59,"required_vocab":1110},"geometry":{"type":"Point","coordinates":[135.5956,34.5169]}},
    {"type":"Feature","properties":{"id":"s108","name":"大阪府立泉陽高等学校","type":"公立","hensachi":59,"required_vocab":1120},"geometry":{"type":"Point","coordinates":[135.4833,34.5722]}},
    {"type":"Feature","properties":{"id":"s109","name":"大阪府立住吉高等学校","type":"公立","hensachi":59,"required_vocab":1130},"geometry":{"type":"Point","coordinates":[135.5036,34.6128]}},
    {"type":"Feature","properties":{"id":"s110","name":"大阪府立牧野高等学校","type":"公立","hensachi":60,"required_vocab":1140},"geometry":{"type":"Point","coordinates":[135.6656,34.8033]}},
    {"type":"Feature","properties":{"id":"s111","name":"大阪府立鳳高等学校","type":"公立","hensachi":60,"required_vocab":1150},"geometry":{"type":"Point","coordinates":[135.4564,34.5344]}},
    {"type":"Feature","properties":{"id":"s112","name":"大阪府立北河内高等学校","type":"公立","hensachi":60,"required_vocab":1160},"geometry":{"type":"Point","coordinates":[135.6383,34.7528]}},
    {"type":"Feature","properties":{"id":"s113","name":"大阪府立千里高等学校","type":"公立","hensachi":61,"required_vocab":1170},"geometry":{"type":"Point","coordinates":[135.4811,34.8047]}},
    {"type":"Feature","properties":{"id":"s114","name":"大阪府立和泉高等学校","type":"公立","hensachi":61,"required_vocab":1180},"geometry":{"type":"Point","coordinates":[135.4394,34.4914]}},
    {"type":"Feature","properties":{"id":"s115","name":"大阪府立岸和田高等学校","type":"公立","hensachi":62,"required_vocab":1190},"geometry":{"type":"Point","coordinates":[135.3719,34.4611]}},
    {"type":"Feature","properties":{"id":"s116","name":"大阪府立春日丘高等学校","type":"公立","hensachi":62,"required_vocab":1200},"geometry":{"type":"Point","coordinates":[135.5714,34.8167]}},
    {"type":"Feature","properties":{"id":"s117","name":"大阪府立豊中高等学校","type":"公立","hensachi":63,"required_vocab":1210},"geometry":{"type":"Point","coordinates":[135.4703,34.7903]}},
    {"type":"Feature","properties":{"id":"s118","name":"大阪府立三島高等学校","type":"公立","hensachi":63,"required_vocab":1220},"geometry":{"type":"Point","coordinates":[135.5903,34.8456]}},
    {"type":"Feature","properties":{"id":"s119","name":"大阪府立高津高等学校","type":"公立","hensachi":65,"required_vocab":1230},"geometry":{"type":"Point","coordinates":[135.5256,34.6639]}},
    {"type":"Feature","properties":{"id":"s120","name":"大阪府立四條畷高等学校","type":"公立","hensachi":66,"required_vocab":1240},"geometry":{"type":"Point","coordinates":[135.6389,34.7369]}},
    {"type":"Feature","properties":{"id":"s121","name":"大阪府立生野高等学校","type":"公立","hensachi":67,"required_vocab":1250},"geometry":{"type":"Point","coordinates":[135.5369,34.6550]}},
    {"type":"Feature","properties":{"id":"s122","name":"大阪府立茨木高等学校","type":"公立","hensachi":68,"required_vocab":1260},"geometry":{"type":"Point","coordinates":[135.5683,34.8156]}},
    {"type":"Feature","properties":{"id":"s123","name":"大阪府立大手前高等学校","type":"公立","hensachi":72,"required_vocab":1270},"geometry":{"type":"Point","coordinates":[135.5228,34.6847]}},
    {"type":"Feature","properties":{"id":"s124","name":"大阪府立三国丘高等学校","type":"公立","hensachi":73,"required_vocab":1280},"geometry":{"type":"Point","coordinates":[135.4833,34.5667]}},
    {"type":"Feature","properties":{"id":"s125","name":"大阪府立天王寺高等学校","type":"公立","hensachi":74,"required_vocab":1290},"geometry":{"type":"Point","coordinates":[135.5189,34.6332]}},
    {"type":"Feature","properties":{"id":"s126","name":"大阪府立北野高等学校","type":"公立","hensachi":76,"required_vocab":1300},"geometry":{"type":"Point","coordinates":[135.4847,34.7187]}},
    {"type":"Feature","properties":{"id":"s127","name":"清風高等学校","type":"私立","hensachi":50,"required_vocab":750},"geometry":{"type":"Point","coordinates":[135.5150,34.6536]}},
    {"type":"Feature","properties":{"id":"s128","name":"大阪学芸高等学校","type":"私立","hensachi":48,"required_vocab":620},"geometry":{"type":"Point","coordinates":[135.5078,34.6167]}},
    {"type":"Feature","properties":{"id":"s129","name":"近畿大学附属高等学校","type":"私立","hensachi":55,"required_vocab":990},"geometry":{"type":"Point","coordinates":[135.5889,34.6472]}},
    {"type":"Feature","properties":{"id":"s130","name":"常翔学園高等学校","type":"私立","hensachi":52,"required_vocab":860},"geometry":{"type":"Point","coordinates":[135.5583,34.7167]}},
    {"type":"Feature","properties":{"id":"s131","name":"清教学園高等学校","type":"私立","hensachi":62,"required_vocab":1190},"geometry":{"type":"Point","coordinates":[135.5594,34.4844]}},
    {"type":"Feature","properties":{"id":"s132","name":"清風南海高等学校","type":"私立","hensachi":70,"required_vocab":1260},"geometry":{"type":"Point","coordinates":[135.4392,34.5178]}},
    {"type":"Feature","properties":{"id":"s133","name":"桃山学院高等学校","type":"私立","hensachi":56,"required_vocab":1020},"geometry":{"type":"Point","coordinates":[135.5178,34.6383]}},
    {"type":"Feature","properties":{"id":"s134","name":"明星高等学校","type":"私立","hensachi":60,"required_vocab":1140},"geometry":{"type":"Point","coordinates":[135.5247,34.6736]}},
    {"type":"Feature","properties":{"id":"s135","name":"履正社高等学校","type":"私立","hensachi":52,"required_vocab":860},"geometry":{"type":"Point","coordinates":[135.4475,34.7778]}},
    {"type":"Feature","properties":{"id":"s136","name":"大阪桐蔭高等学校","type":"私立","hensachi":63,"required_vocab":1220},"geometry":{"type":"Point","coordinates":[135.6503,34.7417]}},
    {"type":"Feature","properties":{"id":"s137","name":"関西大学第一高等学校","type":"私立","hensachi":65,"required_vocab":1230},"geometry":{"type":"Point","coordinates":[135.5211,34.7778]}},
    {"type":"Feature","properties":{"id":"s138","name":"四天王寺高等学校","type":"私立","hensachi":65,"required_vocab":1230},"geometry":{"type":"Point","coordinates":[135.5167,34.6533]}},
    {"type":"Feature","properties":{"id":"s139","name":"大阪星光学院高等学校","type":"私立","hensachi":72,"required_vocab":1270},"geometry":{"type":"Point","coordinates":[135.5164,34.6506]}},
    {"type":"Feature","properties":{"id":"s140","name":"開明高等学校","type":"私立","hensachi":63,"required_vocab":1220},"geometry":{"type":"Point","coordinates":[135.5303,34.6833]}},
    {"type":"Feature","properties":{"id":"s141","name":"同志社香里高等学校","type":"私立","hensachi":63,"required_vocab":1220},"geometry":{"type":"Point","coordinates":[135.6567,34.7556]}},
    {"type":"Feature","properties":{"id":"s142","name":"大阪教育大学附属高等学校池田校舎","type":"国立","hensachi":68,"required_vocab":1260},"geometry":{"type":"Point","coordinates":[135.4322,34.8272]}},
    {"type":"Feature","properties":{"id":"s143","name":"大阪教育大学附属高等学校天王寺校舎","type":"国立","hensachi":73,"required_vocab":1280},"geometry":{"type":"Point","coordinates":[135.5186,34.6356]}},
    {"type":"Feature","properties":{"id":"s144","name":"大阪教育大学附属高等学校平野校舎","type":"国立","hensachi":65,"required_vocab":1230},"geometry":{"type":"Point","coordinates":[135.5550,34.6100]}}
  ]
}

